City_ID,City,Lat,Lng,Max Temp,Humidity,Cloudiness,Wind Speed,Country,Date
0,lebu,-37.6167,-73.65,288.58,76,72,1.95,CL,1701093823
1,port saint john's,-31.6229,29.5448,299.43,72,8,3.67,ZA,1701093850
2,port-aux-francais,-49.35,70.2167,277.8,76,66,7.78,TF,1701093767
3,karema,-6.8205,30.4389,296.29,83,74,3.07,TZ,1701093956
4,whitehorse,60.7161,-135.0538,276.58,48,20,5.14,CA,1701093783
5,fortuna,40.5982,-124.1573,277.34,100,0,4.63,US,1701093896
6,vilyuchinsk,52.9306,158.4028,268.11,80,49,5.55,RU,1701093794
7,talnakh,69.4865,88.3972,249.35,98,55,3.62,RU,1701093767
8,coronel dorrego,-38.7187,-61.2873,300.1,34,12,7.51,AR,1701093957
9,hammerfest,70.6634,23.6821,271.4,80,75,0.51,NO,1701093896
10,longyearbyen,78.2186,15.6401,277.06,75,75,6.69,SJ,1701093767
11,tamandare,-8.7597,-35.1047,301.94,64,52,4.02,BR,1701093957
12,port mathurin,-19.6833,63.4167,298.25,68,0,5.54,MU,1701093771
13,albany,42.6001,-73.9662,277.56,95,80,1.79,US,1701093618
14,college,64.8569,-147.8028,264.51,85,75,0.0,US,1701093800
15,nabire,-3.3667,135.4833,297.9,87,99,1.17,ID,1701093957
16,puerto natales,-51.7236,-72.4875,283.4,50,0,3.09,CL,1701093797
17,lashio,22.9333,97.75,288.88,88,100,0.95,MM,1701093957
18,yanam,16.7333,82.2167,297.95,77,28,3.05,IN,1701093958
19,mar del plata,-38.0023,-57.5575,292.64,90,100,5.14,AR,1701093958
20,avarua,-21.2078,-159.775,297.18,78,75,5.66,CK,1701093779
21,adamstown,-25.066,-130.1015,295.8,85,100,7.59,PN,1701093771
22,iskateley,67.6803,53.1512,249.6,100,56,2.49,RU,1701093779
23,edinburgh of the seven seas,-37.0676,-12.3116,286.26,65,10,5.33,SH,1701093793
24,papatowai,-46.5619,169.4708,283.29,97,100,3.72,NZ,1701093816
25,praia da vitoria,38.7333,-27.0667,293.01,88,75,3.64,PT,1701093836
26,udachny,66.4167,112.4,247.73,100,96,2.66,RU,1701093588
27,bredasdorp,-34.5322,20.0403,299.32,50,6,5.68,ZA,1701093798
28,ta`u,-14.2336,-169.5144,300.53,84,54,10.46,AS,1701093788
29,iqaluit,63.7506,-68.5145,269.0,74,75,7.2,CA,1701093722
30,el porvenir,13.7617,-87.3458,296.78,73,13,2.65,HN,1701093958
31,grytviken,-54.2811,-36.5092,274.28,75,20,8.65,GS,1701093564
32,pizarro,4.9533,-77.366,300.48,83,88,0.76,CO,1701093789
33,ashland,40.8167,-82.2665,272.13,91,88,6.55,US,1701093959
34,bilibino,68.0546,166.4372,257.74,98,88,2.79,RU,1701093769
35,duong dong,10.2167,103.9667,301.15,74,20,2.06,VN,1701093959
36,turaif,31.6725,38.6637,289.29,51,75,9.26,SA,1701093959
37,somoto,13.4808,-86.5821,295.76,80,31,3.54,NI,1701093959
38,cheremukhovo,60.3484,59.9851,268.13,96,100,0.89,RU,1701093867
39,tiksi,71.6872,128.8694,251.84,100,100,2.59,RU,1701093784
40,praia,14.9215,-23.5087,302.45,51,75,9.77,CV,1701093959
41,dudinka,69.4058,86.1778,246.76,98,15,3.9,RU,1701093839
42,east london,-33.0153,27.9116,297.67,78,75,6.69,ZA,1701093813
43,kavaratti,10.5669,72.642,302.08,70,16,2.24,IN,1701093960
44,kyshtovka,56.555,76.6271,266.67,97,75,2.68,RU,1701093960
45,waitangi,-43.9535,-176.5597,283.61,92,96,6.19,NZ,1701093770
46,vanimo,-2.6741,141.3028,299.33,84,75,0.4,PG,1701093960
47,kuraymah,18.55,31.85,307.9,17,29,7.3,SD,1701093960
48,hermanus,-34.4187,19.2345,294.84,72,11,3.85,ZA,1701093790
49,puerto baquerizo moreno,-0.9,-89.6,297.7,88,75,5.14,EC,1701093960
50,selfoss,63.9331,-20.9971,278.21,87,100,3.63,IS,1701093824
51,pacific grove,36.6177,-121.9166,284.91,41,0,3.6,US,1701093825
52,st. john's,47.5649,-52.7093,276.36,84,75,2.57,CA,1701093610
53,tralee,52.2704,-9.7026,283.29,87,75,3.6,IE,1701093960
54,punta arenas,-53.15,-70.9167,283.16,46,0,5.14,CL,1701093830
55,kavieng,-2.5744,150.7967,301.29,76,85,2.0,PG,1701093887
56,blackmans bay,-43.0167,147.3167,284.22,86,97,1.15,AU,1701093771
57,itajuipe,-14.6781,-39.375,300.59,32,11,2.35,BR,1701093922
58,linhares,-19.3911,-40.0722,302.66,57,75,3.16,BR,1701093648
59,nikolayevka,53.1257,47.2041,273.93,97,100,3.74,RU,1701093961
60,palikir - national government center,6.9248,158.1611,300.92,75,100,7.59,FM,1701093961
61,ushuaia,-54.8,-68.3,281.94,76,0,2.06,AR,1701093605
62,mantua,45.1667,10.7833,281.68,79,99,1.22,IT,1701093961
63,olonkinbyen,70.9221,-8.7187,275.1,87,100,8.76,SJ,1701093801
64,anna regina,7.2644,-58.5077,300.32,86,100,3.88,GY,1701093961
65,moose jaw,50.4001,-105.5344,269.3,86,100,6.69,CA,1701093687
66,hadibu,12.65,54.0333,299.69,64,88,5.63,YE,1701093882
67,enewetak,11.3474,162.3373,301.14,77,31,11.56,MH,1701093809
68,georgetown,5.4112,100.3354,299.27,92,40,1.54,MY,1701093618
69,namdrik,5.5994,168.1028,301.33,81,100,7.82,MH,1701093962
70,vorgashor,67.5833,63.95,250.16,99,13,1.96,RU,1701093791
71,yellowknife,62.456,-114.3525,265.44,100,100,7.72,CA,1701093697
72,cadale,2.7603,46.3222,300.92,74,100,5.74,SO,1701093963
73,concepcion del uruguay,-32.4825,-58.2372,302.73,57,14,4.44,AR,1701093963
74,yaren,-0.5472,166.916,301.85,72,100,1.09,NR,1701093774
75,vila velha,-20.3297,-40.2925,299.79,78,100,1.34,BR,1701093730
76,klyuchi,52.2667,79.1667,272.99,79,100,5.62,RU,1701093815
77,san patricio,28.017,-97.5169,284.17,42,100,5.23,US,1701093871
78,freetown,8.484,-13.2299,303.99,66,75,2.06,SL,1701093853
79,mumbwa,-14.9783,27.0619,303.16,35,84,1.36,ZM,1701093964
80,bethel,41.3712,-73.414,281.6,82,0,3.58,US,1701093770
81,reggane,26.7158,0.1714,298.1,18,0,3.42,DZ,1701093964
82,aesch,47.471,7.5973,281.0,75,100,1.03,CH,1701093964
83,jamestown,42.097,-79.2353,274.57,92,100,10.29,US,1701093717
84,margaret river,-33.95,115.0667,290.88,84,92,3.18,AU,1701093810
85,ghat,24.9647,10.1728,299.52,10,0,1.54,LY,1701093965
86,wailua homesteads,22.0669,-159.378,296.59,89,75,6.17,US,1701093809
87,duyun,26.2667,107.5167,285.74,69,0,0.77,CN,1701093965
88,kingston,17.997,-76.7936,301.04,74,20,2.57,JM,1701093647
89,invercargill,-46.4,168.35,284.83,95,100,1.79,NZ,1701093773
90,zaozersk,69.4005,32.4476,260.27,85,79,1.68,RU,1701093890
91,kudahuvadhoo,2.6708,72.8944,301.02,72,93,0.68,MV,1701093779
92,tulun,54.5611,100.5792,254.47,97,99,1.24,RU,1701093966
93,gobabis,-22.45,18.9667,307.59,14,97,5.24,NA,1701093966
94,cascais,38.6979,-9.4215,290.91,86,75,6.26,PT,1701093967
95,ringim,12.1548,9.1619,309.1,13,100,4.68,NG,1701093967
96,puerto palomas,31.7667,-107.6167,279.55,53,100,1.46,MX,1701093967
97,usinsk,65.9939,57.5281,255.97,93,100,3.13,RU,1701093840
98,rabaul,-4.1967,152.1721,300.32,80,33,1.66,PG,1701093968
99,west island,-12.1568,96.8225,300.14,74,40,7.2,CC,1701093772
100,qaqortoq,60.7167,-46.0333,262.26,78,15,3.7,GL,1701093784
101,broome,42.2506,-75.833,277.98,93,100,6.69,US,1701093968
102,ataq,14.5377,46.8319,299.52,21,20,6.45,YE,1701093968
103,olyokminsk,60.3736,120.4264,257.2,93,100,4.04,RU,1701093893
104,bengkulu,-3.8004,102.2655,297.17,93,100,1.5,ID,1701093969
105,colonia,50.9333,6.95,278.18,90,75,5.14,DE,1701093751
106,isafjordur,66.0755,-23.124,278.17,75,100,4.63,IS,1701093773
107,batang,-6.4846,110.7083,300.51,77,67,2.3,ID,1701093969
108,issia,6.4922,-6.5856,302.26,63,88,0.35,CI,1701093969
109,putian,25.4394,119.0103,289.78,79,0,1.78,CN,1701093970
110,mirny,62.5353,113.9611,257.82,92,100,4.04,RU,1701093880
111,plouzane,48.3833,-4.6167,285.18,97,75,7.2,FR,1701093970
112,polyarnyy,69.1989,33.4478,259.19,88,55,2.85,RU,1701093970
113,nuuk,64.1835,-51.7216,271.49,64,75,6.69,GL,1701093811
114,saint-philippe,-21.3585,55.7679,299.92,79,51,3.23,RE,1701093971
115,remire-montjoly,4.9167,-52.2667,304.17,70,75,5.66,GF,1701093839
116,ratne,51.6683,24.5303,269.17,71,22,5.6,UA,1701093971
117,hithadhoo,-0.6,73.0833,301.39,73,50,2.17,MV,1701093821
118,gadzhiyevo,69.2551,33.3362,259.42,87,60,2.62,RU,1701093789
119,santa catalina,9.3337,122.8637,299.22,88,83,2.58,PH,1701093972
120,chernyshevsk,52.5243,117.0174,248.29,97,21,1.06,RU,1701093972
121,madras,13.0878,80.2785,301.46,84,75,2.06,IN,1701093829
122,inhambane,-23.865,35.3833,303.15,58,0,9.39,MZ,1701093972
123,hawaiian paradise park,19.5933,-154.9731,294.2,93,75,2.06,US,1701093852
124,lazy,50.35,19.4167,273.47,78,84,1.98,PL,1701093973
125,port macquarie,-31.4333,152.9167,293.65,92,100,1.4,AU,1701093875
126,lihue,21.9789,-159.3672,296.92,85,75,6.17,US,1701093846
127,nova sintra,14.8667,-24.7167,295.31,67,49,5.45,CV,1701093769
128,warrnambool,-38.3833,142.4833,284.72,89,67,4.38,AU,1701093873
129,tofol,5.3248,163.0078,301.68,79,100,8.43,FM,1701093811
130,mount pearl,47.5166,-52.7813,275.9,84,75,2.57,CA,1701093795
131,yuzhno-kurilsk,44.0306,145.8556,276.14,51,97,1.8,RU,1701093974
132,pangai,-19.8,-174.35,299.23,85,17,6.85,TO,1701093974
133,pangkalanbuun,-2.6833,111.6167,297.68,92,96,0.38,ID,1701093974
134,grand falls-windsor,48.9332,-55.6649,275.65,73,11,3.18,CA,1701093974
135,puerto deseado,-47.7503,-65.8938,282.71,72,100,13.49,AR,1701093974
136,el battan,36.8037,9.8442,292.97,37,63,2.75,TN,1701093975
137,saint-pierre,-21.3393,55.4781,299.97,74,75,6.69,RE,1701093889
138,nordwalde,52.0833,7.4833,276.75,98,100,2.06,DE,1701093975
139,dumai,1.6833,101.45,297.41,97,100,1.2,ID,1701093975
140,alexandroupoli,40.8475,25.8744,281.66,39,20,4.63,GR,1701093975
141,constantia,44.1833,28.65,273.54,73,2,8.12,RO,1701093855
142,ribeira grande,38.5167,-28.7,292.37,94,75,4.12,PT,1701093799
143,khandyga,62.6667,135.6,238.4,98,96,0.75,RU,1701093875
144,sayan,-11.1361,-77.1933,296.59,65,98,2.35,PE,1701093976
145,badger,64.8,-147.5333,264.46,87,100,0.0,US,1701093793
146,zuenoula,7.4292,-6.0431,303.21,59,100,0.29,CI,1701093976
147,nadym,65.5333,72.5167,260.52,95,100,3.6,RU,1701093977
148,chonchi,-42.6128,-73.8092,292.1,61,100,1.35,CL,1701093828
149,usogorsk,63.4106,48.6872,263.52,93,100,4.95,RU,1701093785
150,marco island,25.9363,-81.7157,295.37,77,75,4.63,US,1701093977
151,lichinga,-13.3128,35.2406,302.07,47,75,5.36,MZ,1701093977
152,lae,-6.7221,146.9847,298.72,83,61,1.55,PG,1701093978
153,susuman,62.7833,148.1667,254.11,99,100,2.23,RU,1701093813
154,tchollire,8.4022,14.1698,311.7,13,100,1.5,CM,1701093978
155,sucre,-19.0333,-65.2627,290.12,58,83,2.8,BO,1701093907
156,coyhaique,-45.5752,-72.0662,285.49,66,40,3.09,CL,1701093979
157,kapuskasing,49.4169,-82.4331,270.2,86,100,5.66,CA,1701093736
158,ust-nera,64.5667,143.2,245.88,100,99,3.13,RU,1701093842
159,saipan,15.1355,145.701,301.54,78,40,6.69,MP,1701093817
160,kerikeri,-35.2268,173.9474,283.1,88,16,1.74,NZ,1701093787
161,tutong,4.8,114.65,300.2,89,100,1.81,BN,1701093979
162,siparia,10.1333,-61.5,302.67,69,4,4.34,TT,1701093980
163,sitka,57.0531,-135.33,280.09,93,100,0.0,US,1701093771
164,valle de la pascua,9.2155,-66.0073,301.94,58,2,4.14,VE,1701093980
165,la'ie,21.6477,-157.9253,296.54,80,100,2.68,US,1701093981
166,puerto ayora,-0.7393,-90.3518,300.13,91,91,3.58,EC,1701093780
167,kirkland lake,48.1446,-80.0377,270.31,93,100,1.03,CA,1701093981
168,ribeira brava,32.65,-17.0667,295.5,68,100,1.95,PT,1701093894
169,minot,48.2325,-101.2963,263.27,79,100,0.0,US,1701093720
170,kangding,30.0513,101.9603,279.36,38,4,2.07,CN,1701093981
171,port douglas,-16.4833,145.4667,297.7,87,100,0.96,AU,1701093895
172,la passe,45.5549,-0.8967,285.28,89,100,9.88,FR,1701093831
173,vadso,70.0744,29.7487,269.24,80,100,5.66,NO,1701093834
174,victoria falls,-17.9235,25.843,308.21,26,40,4.63,ZW,1701093982
175,carnarvon,-24.8667,113.6333,295.61,70,100,8.64,AU,1701093778
176,vorotynets,56.0603,45.8633,273.48,89,100,6.05,RU,1701093982
177,port elizabeth,-33.918,25.5701,298.31,69,0,5.66,ZA,1701093767
178,codrington,-38.2667,141.9667,284.67,88,60,5.21,AU,1701093840
179,daru,-9.0763,143.2092,299.38,87,100,2.96,PG,1701093849
180,mountain home,43.133,-115.6912,267.27,84,0,2.57,US,1701093983
181,minas de marcona,-15.2119,-75.1103,291.59,65,43,4.96,PE,1701093769
182,selkirk,50.1436,-96.8845,259.19,83,34,1.34,CA,1701093983
183,charters towers,-20.1,146.2667,295.82,84,100,3.67,AU,1701093873
184,rotonda west,26.8837,-82.2901,293.7,96,100,4.02,US,1701093983
185,alta,69.9689,23.2717,260.74,92,0,2.57,NO,1701093983
186,huarmey,-10.0681,-78.1522,294.59,79,82,4.0,PE,1701093983
187,sipalay,9.75,122.5,298.36,95,91,2.05,PH,1701093984
188,puerto carreno,6.189,-67.4859,301.14,83,20,4.12,CO,1701093984
189,keren,15.7778,38.4581,297.95,39,40,6.31,ER,1701093984
190,kodiak,57.79,-152.4072,276.88,56,0,6.69,US,1701093803
191,santana,-0.0583,-51.1817,306.25,58,40,4.12,BR,1701093855
192,cabo san lucas,22.8909,-109.9124,296.77,75,0,4.63,MX,1701093656
193,raja,8.4596,25.678,308.58,25,100,2.48,SS,1701093985
194,eydhafushi,5.1033,73.0708,301.25,75,100,2.17,MV,1701093985
195,seguela,7.9611,-6.6731,305.63,45,87,1.7,CI,1701093986
196,jacksonville,30.3322,-81.6556,287.27,89,100,5.14,US,1701093631
197,afaahiti,-17.75,-149.2833,296.08,85,49,7.63,PF,1701093813
198,kourou,5.1552,-52.6478,304.18,70,49,4.27,GF,1701093986
199,mandal,25.45,74.5667,292.15,70,66,2.19,IN,1701093986
200,baharly,38.4362,57.4316,294.02,27,39,3.71,TM,1701093986
201,tanjung pandan,-2.75,107.65,298.89,86,100,2.65,ID,1701093880
202,urucara,-2.5364,-57.76,303.76,60,79,1.69,BR,1701093987
203,solnechnyy,50.7214,136.6319,254.28,96,59,1.06,RU,1701093987
204,kodinsk,58.6881,99.1844,251.21,98,8,0.8,RU,1701093853
205,port alfred,-33.5906,26.891,297.69,80,4,2.68,ZA,1701093810
206,bamboo flat,11.7,92.7167,302.2,79,75,5.14,IN,1701093841
207,stanley,54.868,-1.6985,279.29,94,40,3.6,GB,1701093767
208,armidale,-30.5167,151.65,287.79,84,100,2.64,AU,1701093988
209,veigne,47.2856,0.7408,282.12,90,100,5.14,FR,1701093988
210,walvis bay,-22.9575,14.5053,292.64,66,23,4.52,NA,1701093896
211,salekhard,66.53,66.6019,251.96,98,100,0.7,RU,1701093774
212,port augusta,-32.5,137.7667,294.33,66,20,1.77,AU,1701093988
213,al muwayh,22.4333,41.7583,302.61,23,73,2.36,SA,1701093988
214,smithers,54.7804,-127.1743,272.33,86,100,1.54,CA,1701093989
215,tazovsky,67.4667,78.7,256.1,97,98,3.21,RU,1701093804
216,carutapera,-1.195,-46.02,303.73,61,99,4.42,BR,1701093889
217,arkhangel'sk,64.5401,40.5433,259.33,89,100,4.13,RU,1701093989
218,saldanha,-33.0117,17.9442,300.18,81,46,8.67,ZA,1701093989
219,taoudenni,22.6783,-3.9836,299.15,10,0,3.41,ML,1701093989
220,mata-utu,-13.2816,-176.1745,302.2,76,97,7.92,WF,1701093886
221,faya-largeau,17.9257,19.1043,305.09,13,47,8.23,TD,1701093990
222,chashniki,54.8569,29.1607,267.5,94,100,8.85,BY,1701093990
223,masuguru,-11.3667,38.4167,306.47,38,68,3.86,TZ,1701093990
224,cumpana,44.1167,28.5667,273.46,73,3,7.28,RO,1701093991
225,aasiaat,68.7098,-52.8699,266.89,94,100,4.38,GL,1701093839
226,pyay,18.8167,95.2167,295.83,74,15,2.74,MM,1701093991
227,ashmyany,54.425,25.9378,266.15,91,100,7.26,BY,1701093991
228,sokur,55.2093,83.319,268.35,97,74,2.61,RU,1701093991
229,kingscliff,-28.2667,153.5667,295.22,94,75,0.51,AU,1701093899
230,port moresby,-9.4431,147.1797,298.53,91,80,0.18,PG,1701093992
231,zemio,5.0314,25.1361,303.3,56,50,1.76,CF,1701093992
232,el calafate,-50.3408,-72.2768,280.85,52,99,1.78,AR,1701093823
233,rockland,41.1668,-74.0496,280.79,89,5,4.66,US,1701093845
234,as sulayyil,20.4607,45.5779,305.29,24,42,1.78,SA,1701093993
235,katima mulilo,-17.5,24.2667,304.7,33,87,6.88,NA,1701093993
236,thompson,55.7435,-97.8558,248.24,84,20,1.03,CA,1701093791
237,dunedin,-45.8742,170.5036,285.26,97,70,2.68,NZ,1701093772
238,port lincoln,-34.7333,135.8667,286.91,88,100,9.24,AU,1701093787
239,crane,31.3974,-102.3501,277.65,42,96,3.65,US,1701093808
240,portland,45.5234,-122.6762,279.14,73,20,5.81,US,1701093838
241,brookings,44.3114,-96.7984,263.2,86,20,3.09,US,1701093993
242,anadyr,64.75,177.4833,274.43,80,0,5.0,RU,1701093686
243,rancho palos verdes,33.7445,-118.387,289.26,35,82,4.02,US,1701093994
244,ancud,-41.8697,-73.8203,286.31,73,100,2.78,CL,1701093862
245,nar'yan-mar,67.6713,53.087,249.65,100,55,2.46,RU,1701093801
246,juegang,32.3174,121.1855,284.39,51,0,3.79,CN,1701093994
247,prado,-17.3411,-39.2208,296.23,96,100,1.64,BR,1701093994
248,mundybash,53.211,87.2983,266.04,99,48,1.63,RU,1701093994
249,antofagasta,-23.65,-70.4,291.75,61,22,3.66,CL,1701093880
250,kolonia,50.9333,6.95,278.18,90,75,5.14,DE,1701093751
251,fort st. john,56.2499,-120.8529,276.09,65,75,9.77,CA,1701093995
252,fada,9.5667,8.3,306.4,24,92,2.96,NG,1701093856
253,mareeba,-17.0,145.4333,296.55,92,100,0.61,AU,1701093995
254,ulladulla,-35.35,150.4667,293.02,90,99,2.99,AU,1701093995
255,ovalle,-30.5983,-71.2003,295.19,57,4,1.77,CL,1701093721
256,kununurra,-15.7667,128.7333,302.14,74,49,3.09,AU,1701093838
257,akkol',48.7833,53.2,279.87,80,100,2.31,KZ,1701093996
258,laredo,27.5064,-99.5075,284.29,46,100,4.12,US,1701093996
259,san cristobal de las casas,16.75,-92.6333,285.32,87,72,1.89,MX,1701093997
260,vila franca do campo,37.7167,-25.4333,291.38,99,73,3.59,PT,1701093997
261,katsuura,35.1333,140.3,290.61,74,8,9.27,JP,1701093799
262,daira din panah,30.5702,70.9361,293.45,26,78,3.1,PK,1701093997
263,tura,25.5198,90.2201,291.98,74,100,1.35,IN,1701093781
264,kiunga,-6.1219,141.2906,296.93,98,100,0.2,PG,1701093838
265,santiago de cao,-7.9589,-79.2392,293.22,77,89,4.63,PE,1701093997
266,geraldton,-28.7667,114.6,294.38,68,75,4.63,AU,1701093997
267,porto novo,6.4965,2.6036,304.05,55,86,4.04,BJ,1701093898
268,balta,47.9355,29.6198,272.3,68,96,7.94,UA,1701093998
269,el rama,12.1596,-84.2195,297.42,97,100,2.84,NI,1701093998
270,yigo village,13.5361,144.8886,300.55,81,75,5.66,GU,1701093998
271,sur,22.5667,59.5289,298.91,55,0,4.4,OM,1701093998
272,guanica,17.9716,-66.908,303.44,58,0,4.42,PR,1701093998
273,puerto aysen,-45.4,-72.7,288.07,75,100,0.18,CL,1701093999
274,cannonvale,-20.2833,148.7,296.81,85,100,2.11,AU,1701093999
275,new norfolk,-42.7826,147.0587,284.87,86,89,0.38,AU,1701093871
276,barnard castle,54.5415,-1.919,278.6,92,99,6.78,GB,1701093999
277,swakopmund,-22.6833,14.5333,292.58,81,47,3.58,NA,1701093999
278,aki,33.5,133.9,283.12,92,20,1.34,JP,1701093999
279,keflavik,64.0049,-22.5624,280.39,100,100,9.26,IS,1701093767
280,ushibukamachi,32.1906,130.0228,290.88,61,72,7.75,JP,1701093999
281,tafuna,-14.3358,-170.72,301.12,94,100,8.75,AS,1701094000
282,fale old settlement,-9.3852,-171.2468,302.11,78,100,5.61,TK,1701093776
283,rantauprapat,2.1,99.8333,297.0,98,100,0.81,ID,1701094000
284,zayed city,24.3768,54.589,300.93,52,0,3.6,AE,1701094000
285,nantucket,41.2835,-70.0995,285.23,83,20,7.72,US,1701093683
286,la ronge,55.1001,-105.2842,259.29,85,100,0.0,CA,1701093800
287,rechka-vydrino,51.485,104.8461,264.1,77,100,4.92,RU,1701094001
288,chizhou,30.6578,117.4831,285.6,55,0,0.48,CN,1701094001
289,bridgewater,44.3835,-64.5155,280.99,94,100,14.92,CA,1701093770
290,ilulissat,69.2167,-51.1,271.16,86,75,3.6,GL,1701093773
291,fort-shevchenko,44.5086,50.263,281.76,73,100,11.29,KZ,1701094001
292,santa cruz do sul,-29.7175,-52.4258,299.48,67,100,1.75,BR,1701093822
293,gizo,-8.103,156.8419,300.78,79,98,1.74,SB,1701093780
294,kapa'a,22.0752,-159.319,297.33,89,75,6.17,US,1701093800
295,bardai,11.65,7.2333,307.65,15,10,4.53,NG,1701094002
296,weno,7.4515,151.8468,301.12,89,75,4.12,FM,1701093847
297,debila,33.5167,6.95,292.86,30,100,3.33,DZ,1701094002
298,viedma,-40.8135,-62.9967,293.77,29,80,11.66,AR,1701094002
299,manuguru,17.981,80.7547,298.95,65,28,1.77,IN,1701094002
300,dawei,14.0833,98.2,298.93,71,81,3.07,MM,1701094003
301,nemuro,43.3236,145.575,277.73,56,99,2.31,JP,1701093834
302,pisz,53.6274,21.8125,271.03,70,16,1.72,PL,1701094003
303,whangarei,-35.7317,174.3239,283.0,97,19,1.5,NZ,1701094003
304,baiyin,36.5583,104.2081,274.62,41,0,1.05,CN,1701094003
305,jawf al maqbabah,13.8378,45.8349,298.12,50,33,2.14,YE,1701094003
306,rudbar,30.15,62.6,293.56,35,0,1.07,AF,1701093878
307,xilin hot,43.9667,116.0333,253.86,91,6,2.87,CN,1701094004
308,plastun,44.7561,136.2939,268.78,92,100,2.03,RU,1701094004
309,mugia,43.1041,-9.2179,289.35,79,100,3.21,ES,1701093778
310,olinda,-8.0089,-34.8553,303.0,70,75,6.17,BR,1701093832
311,sisimiut,66.9395,-53.6735,268.79,87,100,4.67,GL,1701093865
312,luderitz,-26.6481,15.1594,301.04,44,4,12.21,NA,1701094004
313,tucumcari,35.1717,-103.725,266.06,93,0,3.09,US,1701094004
314,whakatane,-37.9585,176.9854,286.77,86,100,3.05,NZ,1701093903
315,camayenne,9.535,-13.6878,301.42,68,3,3.51,GN,1701094004
316,obock,12.25,43.0833,298.06,49,6,6.64,DJ,1701094005
317,maragogi,-9.0122,-35.2225,302.22,62,50,4.69,BR,1701093766
318,kone,-21.0595,164.8658,294.54,86,28,1.9,NC,1701093796
319,wainwright,52.839,-110.8572,267.38,92,100,2.55,CA,1701094005
320,pulawy,51.4166,21.9694,273.44,83,100,3.72,PL,1701094005
321,tadine,-21.55,167.8833,294.42,76,11,4.2,NC,1701094005
322,ninghai,29.2892,121.4247,285.99,77,0,1.11,CN,1701094006
323,ji'an,27.1172,114.9793,287.95,67,0,1.55,CN,1701093888
324,ningde,26.6617,119.5228,288.05,87,0,1.02,CN,1701093774
325,ola,59.5833,151.2833,255.94,77,95,4.78,RU,1701094006
326,luganville,-15.5333,167.1667,299.2,84,98,4.6,VU,1701094006
327,puerto cabezas,14.0351,-83.3888,300.37,88,65,3.82,NI,1701094006
328,castillos,-34.1667,-53.8333,297.03,62,5,5.02,UY,1701094006
329,santa ana,33.7456,-117.8678,289.77,27,40,1.34,US,1701093639
330,laurentides,46.4334,-74.9826,274.66,96,100,4.27,CA,1701094006
331,toliara,-23.35,43.6667,300.65,65,0,5.72,MG,1701094007
332,sao paulo de olivenca,-3.3783,-68.8725,303.95,60,46,0.14,BR,1701094007
333,jebrail,39.3992,47.0283,291.9,27,1,5.61,AZ,1701094007
334,jianguang,28.1938,115.7836,287.69,66,0,1.27,CN,1701094007
335,hami,42.8,93.45,276.74,42,26,3.02,CN,1701093821
336,kristiansund,63.1115,7.732,271.51,54,0,7.72,NO,1701094007
337,sandnessjoen,66.0217,12.6316,270.21,50,0,2.06,NO,1701093840
338,mitu,1.1983,-70.1733,299.37,92,6,1.16,CO,1701093898
339,khanskaya,44.677,39.9616,278.84,70,56,7.25,RU,1701094007
340,chirilagua,13.2203,-88.1386,298.72,68,7,1.87,SV,1701094008
341,atafu village,-8.5421,-172.5159,302.26,76,100,4.27,TK,1701093772
342,nan,18.8333,100.6667,293.28,84,25,0.81,TH,1701094008
343,bereznik,62.8551,42.7072,265.7,92,100,5.24,RU,1701094008
344,shalkar,47.8288,59.6258,279.28,74,0,5.26,KZ,1701094008
345,touros,-5.1989,-35.4608,302.97,63,32,6.23,BR,1701093801
346,mahibadhoo,3.7833,72.9667,301.47,73,76,1.29,MV,1701094008
347,ahmadpur,18.7,76.9333,297.08,63,23,3.45,IN,1701094008
348,saint-louis,16.3333,-15.0,307.97,9,0,3.65,SN,1701094008
349,narvik,68.4384,17.4272,269.82,79,1,3.97,NO,1701094009
350,petropavlovsk-kamchatsky,53.0452,158.6483,267.29,63,75,7.15,RU,1701093793
351,puerto maldonado,-12.6,-69.1833,302.37,74,100,2.57,PE,1701094009
352,shingu,33.7333,135.9833,288.08,89,83,1.87,JP,1701094009
353,sechura,-5.5569,-80.8222,295.75,69,32,5.06,PE,1701093847
354,tavda,58.0425,65.2726,274.09,95,100,4.02,RU,1701094009
355,mo i rana,66.3128,14.1428,262.77,84,8,0.89,NO,1701093841
356,montmagny,48.9734,2.3469,281.46,93,100,5.66,FR,1701094009
357,prineville,44.2999,-120.8345,271.2,63,0,2.74,US,1701094009
358,cromwell,41.5951,-72.6454,282.3,88,75,4.12,US,1701093720
359,kavalerovo,44.2661,135.0572,270.12,81,99,0.45,RU,1701094010
360,srivardhan,18.0333,73.0167,299.79,73,7,2.67,IN,1701094010
361,opuwo,-18.0607,13.84,306.33,24,100,6.91,NA,1701094010
362,buchanan,5.8808,-10.0467,302.01,71,81,2.35,LR,1701093936
363,quibdo,5.6947,-76.6611,300.15,88,90,0.74,CO,1701094010
364,barclayville,4.6797,-8.2339,301.17,75,86,1.21,LR,1701093864
365,hastings,50.8552,0.5729,284.81,39,99,7.27,GB,1701094010
366,kenora,49.8167,-94.4337,258.69,78,100,6.17,CA,1701093863
367,mbanza kongo,-6.267,14.2401,296.48,88,97,1.62,AO,1701094010
368,newman,37.3138,-121.0208,274.28,63,8,0.6,US,1701093872
369,salahonda,2.1019,-78.7217,299.52,84,8,2.78,CO,1701094010
370,alo,7.4178,6.7371,307.27,43,23,1.89,NG,1701094011
371,pielavesi,63.2333,26.75,260.53,89,81,4.27,FI,1701094011
372,rambervillers,48.3424,6.6358,275.68,97,100,7.37,FR,1701094011
373,holualoa,19.6228,-155.9522,294.14,85,20,4.12,US,1701093780
374,akureyri,65.6835,-18.0878,273.11,86,0,1.03,IS,1701093890
375,itabira,-19.6192,-43.2269,299.16,57,81,2.66,BR,1701094011
376,sitia,35.2,26.0986,291.47,46,41,8.31,GR,1701094011
377,utrik,11.2278,169.8474,300.89,75,54,9.75,MH,1701093787
378,tuy hoa,13.0833,109.3,296.6,83,85,6.03,VN,1701093877
379,hirara,24.8,125.2833,296.07,68,100,7.2,JP,1701093881
380,mysliborz,52.9238,14.8679,273.42,76,100,2.32,PL,1701094011
381,pangkalpinang,-2.1333,106.1333,298.25,92,100,2.55,ID,1701094012
382,kulhudhuffushi,6.6221,73.07,301.16,78,89,4.59,MV,1701094012
383,yuncheng,35.0231,110.9928,279.12,32,0,1.48,CN,1701094012
384,dong ha,16.8163,107.1003,294.99,83,64,1.94,VN,1701094012
385,yesilyurt,38.2972,38.2497,278.12,56,97,4.27,TR,1701094012
386,gurupi,-11.7292,-49.0686,306.17,45,70,2.11,BR,1701093902
387,fuerte olimpo,-21.0415,-57.8738,305.78,51,30,5.11,PY,1701094012
388,maych'ew,12.7875,39.5422,290.71,44,66,3.97,ET,1701094012
389,hotan,37.0997,79.9269,278.9,25,100,1.53,CN,1701094012
390,ad dabbah,18.05,30.95,307.85,14,26,7.34,SD,1701093857
391,haslingden,53.7033,-2.3238,278.23,92,100,1.79,GB,1701094013
392,papao,-17.75,-149.55,296.97,85,26,8.63,PF,1701094013
393,christchurch,-43.5333,172.6333,286.43,88,92,2.57,NZ,1701093556
394,tarija,-21.5355,-64.7296,296.1,60,40,2.06,BO,1701094013
395,bikenibeu village,1.3673,173.1241,301.13,83,75,0.0,KI,1701093796
396,gejiu,23.306,103.1635,281.8,83,56,1.23,CN,1701094013
397,uturoa,-16.7333,-151.4333,299.5,75,80,7.17,PF,1701093767
398,beyneu,45.3167,55.2,286.66,53,13,5.41,KZ,1701094013
399,belmonte,-15.8631,-38.8828,301.87,58,38,3.85,BR,1701093768
400,glace bay,46.1969,-59.957,278.03,80,72,5.36,CA,1701094014
401,kruisfontein,-34.0033,24.7314,298.45,39,6,5.37,ZA,1701094014
402,tarawa,1.419,172.984,301.2,83,75,0.0,KI,1701093795
403,puerto santa,-8.9906,-78.6456,292.63,86,92,3.72,PE,1701094014
404,el-tor,28.2364,33.6254,295.62,36,50,9.9,EG,1701094014
405,mili,6.0815,171.735,301.59,80,100,8.49,MH,1701093775
406,queenstown,-31.8976,26.8753,307.64,17,4,6.0,ZA,1701093799
407,okakarara,-20.5833,17.4333,308.95,14,95,6.13,NA,1701094014
408,blythe,33.6103,-114.5964,285.4,28,0,4.12,US,1701094014
409,ornskoldsvik,63.2909,18.7153,262.68,79,75,5.14,SE,1701094014
410,benoni,-26.1885,28.3208,307.18,23,88,3.69,ZA,1701094015
411,znamenskoye,57.1281,73.8282,268.92,94,55,3.49,RU,1701094015
412,kolonia town,6.964,158.206,301.49,75,100,7.63,FM,1701094015
413,atamyrat,37.8357,65.2106,293.01,26,0,4.18,TM,1701094015
414,sinabang,2.4803,96.3801,299.54,84,100,2.08,ID,1701093773
415,rudsar,37.1376,50.288,294.91,48,4,3.35,IR,1701094015
416,haiku-pauwela,20.9219,-156.3051,297.06,77,0,4.47,US,1701093792
417,derzhavinsk,51.1,66.3167,276.01,67,100,6.83,KZ,1701094015
418,jodhpur,26.2867,73.03,294.04,55,44,0.78,IN,1701094015
419,yelizovo,53.1873,158.3805,268.04,87,39,1.38,RU,1701094016
420,yung shue wan,22.2333,114.1167,295.83,72,4,3.44,HK,1701094016
421,edremit,39.5961,27.0244,282.01,57,40,2.57,TR,1701094016
422,slavyanka,42.8633,131.3847,271.63,84,100,1.86,RU,1701094016
423,robore,-18.3333,-59.75,305.2,62,40,6.17,BO,1701093796
424,hammam bou hadjar,35.3789,-0.9678,292.76,58,9,6.51,DZ,1701094016
425,borodulikha,50.7184,80.9295,272.6,80,100,5.35,KZ,1701094016
426,lorengau,-2.0226,147.2712,300.61,77,15,0.82,PG,1701094016
427,beinamar,8.6698,15.3813,311.08,15,28,3.21,TD,1701094017
428,fisterra,42.9049,-9.2629,289.27,81,99,2.96,ES,1701093803
429,qarazhal,48.0078,70.7903,279.48,43,100,6.38,KZ,1701094017
430,hamilton,39.1834,-84.5333,274.13,79,100,4.12,US,1701093815
431,san luis de la loma,17.2706,-100.8939,298.91,72,88,1.62,MX,1701093861
432,lagoa santa,-19.6272,-43.8897,301.69,44,40,3.09,BR,1701094017
433,luocheng,29.3848,104.0286,288.4,75,100,1.26,CN,1701094017
434,kirensk,57.7853,108.1119,255.91,99,98,0.89,RU,1701094017
435,arawa,-6.2132,155.5367,298.5,91,100,1.13,PG,1701094017
436,acapulco de juarez,16.8634,-99.8901,298.05,88,75,2.06,MX,1701093674
437,allapalli,19.4167,80.0667,297.09,79,98,1.21,IN,1701094017
438,virginia,37.5481,-77.4467,282.14,87,20,4.63,US,1701094017
439,miles city,46.4083,-105.8406,267.69,93,0,2.57,US,1701093883
440,revda,56.801,59.9303,271.99,85,100,4.62,RU,1701094018
441,kimbe,-5.5502,150.1429,298.01,93,100,1.22,PG,1701093774
442,paita,-5.0892,-81.1144,294.92,74,71,5.23,PE,1701094018
443,moramanga,-18.9333,48.2,299.92,53,3,3.39,MG,1701094018
444,phan thiet,10.9333,108.1,298.84,76,100,3.44,VN,1701093868
445,nova vicosa,-17.8919,-39.3719,298.25,79,99,1.39,BR,1701093882
446,kerouane,9.2667,-9.0167,303.06,49,82,1.34,GN,1701094018
447,aswan,24.0934,32.907,298.58,22,24,7.6,EG,1701094018
448,cardoso,-20.0819,-49.9142,302.97,50,100,4.21,BR,1701093889
449,khudaganj,28.15,79.7167,292.36,55,38,1.96,IN,1701094019
450,guatire,10.4762,-66.5427,302.15,69,12,1.69,VE,1701094019
451,shimoda,34.6667,138.95,287.1,82,24,6.36,JP,1701093836
452,pisco,-13.7,-76.2167,295.18,68,0,4.12,PE,1701094019
453,al jawf,29.5,38.75,292.74,33,1,5.39,SA,1701093895
454,balqash,46.8481,74.995,279.41,54,100,6.39,KZ,1701094019
455,acarau,-2.8856,-40.12,304.94,53,1,7.36,BR,1701094019
456,ghogha,21.6833,72.2833,298.8,64,15,2.63,IN,1701094019
457,chiredzi,-21.05,31.6667,311.01,16,0,4.75,ZW,1701094019
458,vuktyl,63.8567,57.3094,263.21,91,100,1.79,RU,1701094019
459,osijek,45.5511,18.6939,281.16,65,0,4.63,HR,1701094019
460,blackwater,-23.5833,148.8833,294.09,100,100,5.34,AU,1701094020
461,island harbour,50.724,-1.2758,285.49,84,98,2.68,GB,1701094020
462,jangaon,17.7167,79.1833,296.9,69,11,2.53,IN,1701094020
463,northam,51.0333,-4.2167,283.85,90,56,9.87,GB,1701094020
464,phillip island,-38.4835,145.231,288.42,89,73,3.71,AU,1701094020
465,guerrero negro,27.9769,-114.0611,289.56,66,83,3.27,MX,1701093799
466,quthing,-30.4,27.7003,308.15,11,10,5.74,LS,1701094020
467,natal,-5.795,-35.2094,299.51,94,75,2.06,BR,1701094020
468,tual,-5.6667,132.75,301.67,74,99,2.44,ID,1701093886
469,bubaque,11.2833,-15.8333,299.77,65,3,1.23,GW,1701093835
470,frydlant nad ostravici,49.5928,18.3597,274.35,88,100,1.63,CZ,1701094021
471,nha trang,12.25,109.1833,300.15,83,98,5.1,VN,1701094021
472,iglino,54.8324,56.4126,276.2,82,4,2.48,RU,1701094021
473,san ignacio de velasco,-16.3667,-60.95,303.7,51,52,3.6,BO,1701094021
474,sosnovyy bor,59.9,29.1167,268.07,81,100,11.39,RU,1701094021
475,figuig (centre),32.1089,-1.2286,292.26,13,0,2.83,MA,1701094021
476,mount gambier,-37.8333,140.7667,283.3,80,68,3.76,AU,1701094021
477,rio grande,-32.035,-52.0986,299.21,79,100,5.89,BR,1701094021
478,khark,29.2614,50.3306,297.42,72,0,2.04,IR,1701094022
479,moroni,-11.7022,43.2551,301.3,74,49,2.37,KM,1701093795
480,vilyuysk,63.7553,121.6247,258.15,90,100,4.02,RU,1701093815
481,nieuw amsterdam,5.8833,-55.0833,304.27,73,40,3.09,SR,1701094022
482,muncar,-8.4333,114.3333,299.61,80,100,1.77,ID,1701094022
483,sultanah,24.4926,39.5857,305.4,22,0,4.12,SA,1701094023
484,manacapuru,-3.2997,-60.6206,303.91,60,27,0.95,BR,1701093764
485,oriximina,-1.7656,-55.8661,305.29,52,24,1.55,BR,1701094023
486,piacabucu,-10.4056,-36.4344,302.93,59,27,4.97,BR,1701094023
487,konjic,43.6519,17.9614,275.64,93,100,2.98,BA,1701094024
488,luwuk,-0.9516,122.7875,299.05,86,67,0.96,ID,1701094024
489,bassar,9.25,0.7833,307.64,35,29,0.23,TG,1701094024
490,margate,51.3813,1.3862,283.09,92,100,2.68,GB,1701093673
491,muroto-misakicho,33.2833,134.15,290.58,80,35,4.24,JP,1701094025
492,santa rosalia,27.3167,-112.2833,287.72,80,31,1.72,MX,1701094025
493,khilok,51.3674,110.4676,256.02,94,95,2.88,RU,1701094025
494,odzak,45.0111,18.3267,279.31,57,100,3.88,BA,1701094025
495,vreed-en-hoop,6.8093,-58.198,304.33,80,100,3.63,GY,1701094026
496,kosh-agach,50.0,88.6667,259.43,90,17,0.45,RU,1701094026
497,quelimane,-17.8786,36.8883,304.12,62,40,4.63,MZ,1701094026
498,sao jose da coroa grande,-8.8978,-35.1478,301.87,64,47,4.22,BR,1701094026
499,rio gallegos,-51.6226,-69.2181,285.71,47,100,9.21,AR,1701094027
500,dali,25.7,100.1833,284.01,73,84,0.99,CN,1701094027
501,brisas de zicatela,15.8369,-97.0419,297.44,78,40,3.09,MX,1701093897
502,sao vicente,-23.9631,-46.3919,301.63,51,100,0.89,BR,1701094027
503,alaghsas,17.0187,8.0168,306.33,16,100,1.04,NE,1701094027
504,sarmiento,-45.5882,-69.07,291.42,37,100,8.44,AR,1701094027
505,kandri,21.4167,79.2667,294.91,69,76,2.16,IN,1701094028
506,lamu,-2.2717,40.902,301.01,75,100,3.39,KE,1701094028
507,simanggang,1.2472,111.4528,296.8,97,99,0.69,MY,1701094028
508,ibarreta,-25.2144,-59.8585,295.45,98,100,1.02,AR,1701094028
509,vrangel',42.7297,133.0839,273.33,86,99,2.73,RU,1701094028
510,naze,28.3667,129.4833,291.66,68,57,5.23,JP,1701093792
511,nampula,-15.1165,39.2666,302.88,48,100,4.6,MZ,1701094029
512,ascension,30.2169,-90.9001,280.37,77,0,3.09,US,1701093806
513,bonthe,7.5264,-12.505,303.26,66,37,3.89,SL,1701093807
514,barra,-11.0894,-43.1417,304.6,27,0,3.86,BR,1701093784
515,vigan,17.5747,120.3869,299.62,82,8,2.17,PH,1701094030
516,puerto madero,14.7208,-92.4215,299.25,76,12,2.18,MX,1701094030
517,whistler,50.1164,-122.9695,272.35,65,100,0.7,CA,1701093888
518,waingapu,-9.6567,120.2641,300.78,80,93,0.55,ID,1701093899
519,tagiura,32.8817,13.3506,293.45,33,5,1.27,LY,1701094031
520,lucea,18.451,-78.1736,302.51,72,2,4.5,JM,1701094031
521,bhadarwah,32.9833,75.7167,284.45,56,100,1.33,IN,1701094031
522,djambala,-2.5447,14.7533,295.35,86,100,1.26,CG,1701094032
523,tuskegee,32.424,-85.6916,278.76,100,37,1.79,US,1701094032
524,isla vista,34.4133,-119.861,288.4,45,0,0.45,US,1701094032
525,vernon,50.2581,-119.2691,276.35,86,100,0.51,CA,1701093825
526,kuybyshev,55.4475,78.3218,265.62,95,82,3.57,RU,1701094032
527,alofi,-19.0595,-169.9187,297.09,94,100,2.57,NU,1701093897
528,wasilkow,53.1991,23.2078,268.25,84,88,2.24,PL,1701094033
529,kerema,-7.9631,145.7785,299.52,89,100,1.17,PG,1701094033
530,aripuana,-9.1667,-60.6333,307.56,41,64,0.45,BR,1701094033
531,bondo,3.8146,23.6866,302.53,64,81,0.29,CD,1701094033
532,yangambi,0.8102,24.4336,304.59,50,100,1.36,CD,1701093812
533,mawlamyinegyunn,16.3833,95.2667,297.96,75,10,3.27,MM,1701094033
534,pauini,-7.7136,-66.9764,296.97,95,100,0.69,BR,1701094033
535,ocean city,39.2776,-74.5746,282.58,82,51,2.68,US,1701093932
536,sabha,27.0377,14.4283,295.09,18,86,4.38,LY,1701094034
537,tabou,4.423,-7.3528,302.09,68,97,1.97,CI,1701094034
538,likiep,9.8251,169.3107,300.9,78,52,10.2,MH,1701094034
539,vina del mar,-33.0246,-71.5518,290.55,84,100,3.09,CL,1701093933
540,banamba,13.55,-7.45,308.74,11,8,2.64,ML,1701094035
541,mariehamn,60.0973,19.9348,268.05,73,75,4.12,AX,1701094035
542,ratnagiri,16.9833,73.3,300.16,75,5,2.81,IN,1701094035
543,afif,23.9065,42.9172,300.35,27,8,2.63,SA,1701094036
544,twon-brass,4.3151,6.2418,301.43,74,100,2.79,NG,1701094036
545,nanao,37.05,136.9667,287.69,78,82,4.81,JP,1701093868
546,floro,61.5996,5.0328,278.69,60,20,3.09,NO,1701094036
547,rongelap,11.1635,166.8941,300.93,77,8,10.32,MH,1701093812
548,saudarkrokur,65.7461,-19.6394,277.01,83,99,6.09,IS,1701093851
549,xining,36.6167,101.7667,274.23,37,1,0.87,CN,1701094037
550,itoman,26.1247,127.6694,295.16,68,20,7.2,JP,1701094037
551,przasnysz,53.0191,20.8803,269.37,91,19,1.34,PL,1701094037
552,tosontsengel,48.7567,98.2839,257.3,99,94,1.38,MN,1701094037
553,berbera,10.4396,45.0143,300.72,65,32,4.2,SO,1701094037
554,hoemul-li,41.4339,129.67,274.91,96,100,2.37,KP,1701094038
555,harstad,68.799,16.5293,271.01,83,23,8.94,NO,1701094038
556,moyale,3.5167,39.0584,300.46,41,3,4.3,KE,1701094038
557,bakanas,44.8081,76.2772,280.8,54,84,3.82,KZ,1701094039
558,san luis,-33.295,-66.3356,303.59,29,0,1.81,AR,1701094039
559,yabelo,4.8833,38.0833,295.83,38,2,4.41,ET,1701094039
560,beliator,23.3333,87.2167,296.45,47,92,0.49,IN,1701094039
561,maun,-19.9833,23.4167,311.41,10,1,5.73,BW,1701094040
562,gorontalo,0.5412,123.0595,297.65,96,99,1.2,ID,1701094040
563,buncrana,55.1333,-7.45,282.02,68,22,5.83,IE,1701094040
564,sao joao da barra,-21.6403,-41.0511,301.2,73,40,5.04,BR,1701094041
565,alto araguaia,-17.3147,-53.2153,304.12,40,100,5.32,BR,1701094041
566,sampit,-2.5333,112.95,297.23,90,64,0.65,ID,1701094041
567,lerwick,60.1545,-1.1494,278.15,79,100,2.17,GB,1701094041
568,la sarre,48.8002,-79.1996,270.83,95,100,4.19,CA,1701093771
569,cles,46.3667,11.0333,279.35,32,93,1.5,IT,1701094041
570,san rafael del sur,11.8485,-86.4384,300.02,76,75,5.42,NI,1701094042
571,manggar,-2.8833,108.2667,299.28,85,100,2.96,ID,1701094042
572,aleksandrov gay,50.147,48.5704,277.71,84,100,4.22,RU,1701094042
573,kenai,60.5544,-151.2583,275.42,98,100,0.0,US,1701094042
574,luuq,3.7938,42.5445,307.04,30,98,4.85,SO,1701094043
575,sinop,41.7711,34.8709,275.56,48,78,6.5,TR,1701093859
576,akdepe,42.0551,59.3788,290.2,21,100,4.95,TM,1701093883
577,arkhara,49.4212,130.0842,253.3,97,100,1.4,RU,1701094043
578,dryden,49.7833,-92.7503,257.31,72,100,4.63,CA,1701093806
579,hnidyn,50.329,30.7106,272.64,91,100,9.73,UA,1701094043
580,kokopo,-4.352,152.2633,298.9,86,47,1.55,PG,1701094044
581,zyryanskoye,56.8306,86.6258,258.21,99,82,1.38,RU,1701094044
582,carolina beach,34.0352,-77.8936,283.19,92,100,5.29,US,1701094044
583,sierra grande,-41.606,-65.3557,290.31,38,67,10.47,AR,1701094044
584,prince rupert,54.3161,-130.3201,280.2,93,100,3.6,CA,1701094045
585,camana,-16.6228,-72.7111,295.13,69,32,3.95,PE,1701094045
586,racale,39.9631,18.0938,286.39,60,84,6.24,IT,1701094045
587,luanda,-8.8368,13.2343,300.15,83,75,3.6,AO,1701093991
588,al burayqah,30.4062,19.5739,292.81,41,100,2.87,LY,1701094045
